[{"_id":3081,"AREA_ID":25886861,"AREA_ATTR_ID":25926662,"PARENT_AREA_ID":49885,"AREA_SHORT_CODE":94,"AREA_LONG_CODE":94,"AREA_NAME":"Wychwood (94)","AREA_DESC":"Wychwood (94)","X":null,"Y":null,"LONGITUDE":-79.425514947,"LATITUDE":43.6769192679,"OBJECTID":16491505,"Shape__Area":3217959.609375,"Shape__Length":7515.779658331329},{"_id":3082,"AREA_ID":25886820,"AREA_ATTR_ID":25926663,"PARENT_AREA_ID":49885,"AREA_SHORT_CODE":100,"AREA_LONG_CODE":100,"AREA_NAME":"Yonge-Eglinton (100)","AREA_DESC":"Yonge-Eglinton (100)","X":null,"Y":null,"LONGITUDE":-79.4035901675,"LATITUDE":43.704689367700006,"OBJECTID":16491521,"Shape__Area":3160333.98828125,"Shape__Length":7872.021073686329},{"_id":3083,"AREA_ID":25886834,"AREA_ATTR_ID":25926664,"PARENT_AREA_ID":49885,"AREA_SHORT_CODE":97,"AREA_LONG_CODE":97,"AREA_NAME":"Yonge-St.Clair (97)","AREA_DESC":"Yonge-St.Clair (97)","X":null,"Y":null,"LONGITUDE":-79.3978707687,"LATITUDE":43.687858872,"OBJECTID":16491537,"Shape__Area":2222464.265625,"Shape__Length":8130.41127575658},{"_id":3084,"AREA_ID":25886593,"AREA_ATTR_ID":25926665,"PARENT_AREA_ID":49885,"AREA_SHORT_CODE":27,"AREA_LONG_CODE":27,"AREA_NAME":"York University Heights (27)","AREA_DESC":"York University Heights (27)","X":null,"Y":null,"LONGITUDE":-79.4888829298,"LATITUDE":43.765736490900004,"OBJECTID":16491553,"Shape__Area":25418210.125,"Shape__Length":25632.335241766403},{"_id":3085,"AREA_ID":25886688,"AREA_ATTR_ID":25926666,"PARENT_AREA_ID":49885,"AREA_SHORT_CODE":31,"AREA_LONG_CODE":31,"AREA_NAME":"Yorkdale-Glen Park (31)","AREA_DESC":"Yorkdale-Glen Park (31)","X":null,"Y":null,"LONGITUDE":-79.4571080738,"LATITUDE":43.714671529300006,"OBJECTID":16491569,"Shape__Area":11566687.5585938,"Shape__Length":13953.4080976784},{"_id":3086,"AREA_ID":25886404,"AREA_ATTR_ID":25926667,"PARENT_AREA_ID":49885,"AREA_SHORT_CODE":114,"AREA_LONG_CODE":114,"AREA_NAME":"Lambton Baby Point (114)","AREA_DESC":"Lambton Baby Point (114)","X":null,"Y":null,"LONGITUDE":-79.4960452553,"LATITUDE":43.6574201304,"OBJECTID":16491585,"Shape__Area":3406856.80859375,"Shape__Length":11181.7883163997},{"_id":3087,"AREA_ID":25886627,"AREA_ATTR_ID":25926668,"PARENT_AREA_ID":49885,"AREA_SHORT_CODE":38,"AREA_LONG_CODE":38,"AREA_NAME":"Lansing-Westgate (38)","AREA_DESC":"Lansing-Westgate (38)","X":null,"Y":null,"LONGITUDE":-79.4247477215,"LATITUDE":43.754271154899996,"OBJECTID":16491601,"Shape__Area":10254357.3710938,"Shape__Length":15391.584157019699},{"_id":3088,"AREA_ID":25886808,"AREA_ATTR_ID":25926669,"PARENT_AREA_ID":49885,"AREA_SHORT_CODE":105,"AREA_LONG_CODE":105,"AREA_NAME":"Lawrence Park North (105)","AREA_DESC":"Lawrence Park North (105)","X":null,"Y":null,"LONGITUDE":-79.40397836359999,"LATITUDE":43.73006017229999,"OBJECTID":16491617,"Shape__Area":4388577.1875,"Shape__Length":9051.4880420169},{"_id":3089,"AREA_ID":25886812,"AREA_ATTR_ID":25926670,"PARENT_AREA_ID":49885,"AREA_SHORT_CODE":103,"AREA_LONG_CODE":103,"AREA_NAME":"Lawrence Park South (103)","AREA_DESC":"Lawrence Park South (103)","X":null,"Y":null,"LONGITUDE":-79.40603941020001,"LATITUDE":43.71721170479999,"OBJECTID":16491633,"Shape__Area":6211340.6171875,"Shape__Length":13530.3700016639},{"_id":3090,"AREA_ID":25886328,"AREA_ATTR_ID":25926671,"PARENT_AREA_ID":49885,"AREA_SHORT_CODE":56,"AREA_LONG_CODE":56,"AREA_NAME":"Leaside-Bennington (56)","AREA_DESC":"Leaside-Bennington (56)","X":null,"Y":null,"LONGITUDE":-79.3660723439,"LATITUDE":43.7037966281,"OBJECTID":16491649,"Shape__Area":9161863.8046875,"Shape__Length":20531.7306579787},{"_id":3091,"AREA_ID":25886972,"AREA_ATTR_ID":25926672,"PARENT_AREA_ID":49885,"AREA_SHORT_CODE":84,"AREA_LONG_CODE":84,"AREA_NAME":"Little Portugal (84)","AREA_DESC":"Little Portugal (84)","X":null,"Y":null,"LONGITUDE":-79.4303227131,"LATITUDE":43.6475359304,"OBJECTID":16491665,"Shape__Area":2324743.0390625,"Shape__Length":7519.98846383067},{"_id":3092,"AREA_ID":25886804,"AREA_ATTR_ID":25926673,"PARENT_AREA_ID":49885,"AREA_SHORT_CODE":19,"AREA_LONG_CODE":19,"AREA_NAME":"Long Branch (19)","AREA_DESC":"Long Branch (19)","X":null,"Y":null,"LONGITUDE":-79.5333454492,"LATITUDE":43.592361688500006,"OBJECTID":16491681,"Shape__Area":4315293.875,"Shape__Length":10782.6264337678},{"_id":3093,"AREA_ID":25886422,"AREA_ATTR_ID":25926674,"PARENT_AREA_ID":49885,"AREA_SHORT_CODE":132,"AREA_LONG_CODE":132,"AREA_NAME":"Malvern (132)","AREA_DESC":"Malvern (132)","X":null,"Y":null,"LONGITUDE":-79.22251661899999,"LATITUDE":43.8036581967,"OBJECTID":16491697,"Shape__Area":17032270.292968802,"Shape__Length":16744.4773106321},{"_id":3094,"AREA_ID":25886697,"AREA_ATTR_ID":25926675,"PARENT_AREA_ID":49885,"AREA_SHORT_CODE":29,"AREA_LONG_CODE":29,"AREA_NAME":"Maple Leaf (29)","AREA_DESC":"Maple Leaf (29)","X":null,"Y":null,"LONGITUDE":-79.48075801739999,"LATITUDE":43.7155739408,"OBJECTID":16491713,"Shape__Area":4839829.703125,"Shape__Length":8828.13355594758},{"_id":3095,"AREA_ID":25886785,"AREA_ATTR_ID":25926676,"PARENT_AREA_ID":49885,"AREA_SHORT_CODE":12,"AREA_LONG_CODE":12,"AREA_NAME":"Markland Wood (12)","AREA_DESC":"Markland Wood (12)","X":null,"Y":null,"LONGITUDE":-79.57343154739999,"LATITUDE":43.6335417462,"OBJECTID":16491729,"Shape__Area":5643281.37109375,"Shape__Length":10845.6123629208},{"_id":3096,"AREA_ID":25886411,"AREA_ATTR_ID":25926677,"PARENT_AREA_ID":49885,"AREA_SHORT_CODE":130,"AREA_LONG_CODE":130,"AREA_NAME":"Milliken (130)","AREA_DESC":"Milliken (130)","X":null,"Y":null,"LONGITUDE":-79.2750089244,"LATITUDE":43.8206907942,"OBJECTID":16491745,"Shape__Area":18217906.859375,"Shape__Length":23261.716887783197},{"_id":3097,"AREA_ID":25886789,"AREA_ATTR_ID":25926678,"PARENT_AREA_ID":49885,"AREA_SHORT_CODE":17,"AREA_LONG_CODE":17,"AREA_NAME":"Mimico (includes Humber Bay Shores) (17)","AREA_DESC":"Mimico (includes Humber Bay Shores) (17)","X":null,"Y":null,"LONGITUDE":-79.5001366364,"LATITUDE":43.615923861300004,"OBJECTID":16491761,"Shape__Area":13478238.7734375,"Shape__Length":32302.661690111403},{"_id":3098,"AREA_ID":25886466,"AREA_ATTR_ID":25926679,"PARENT_AREA_ID":49885,"AREA_SHORT_CODE":135,"AREA_LONG_CODE":135,"AREA_NAME":"Morningside (135)","AREA_DESC":"Morningside (135)","X":null,"Y":null,"LONGITUDE":-79.2070411878,"LATITUDE":43.782398614499996,"OBJECTID":16491777,"Shape__Area":11018980.5820313,"Shape__Length":18309.8807782217},{"_id":3099,"AREA_ID":25886935,"AREA_ATTR_ID":25926680,"PARENT_AREA_ID":49885,"AREA_SHORT_CODE":73,"AREA_LONG_CODE":73,"AREA_NAME":"Moss Park (73)","AREA_DESC":"Moss Park (73)","X":null,"Y":null,"LONGITUDE":-79.3672970317,"LATITUDE":43.6565176231,"OBJECTID":16491793,"Shape__Area":2701394.82421875,"Shape__Length":8578.01794637881},{"_id":3100,"AREA_ID":25886380,"AREA_ATTR_ID":25926681,"PARENT_AREA_ID":49885,"AREA_SHORT_CODE":115,"AREA_LONG_CODE":115,"AREA_NAME":"Mount Dennis (115)","AREA_DESC":"Mount Dennis (115)","X":null,"Y":null,"LONGITUDE":-79.4999890581,"LATITUDE":43.6881440868,"OBJECTID":16491809,"Shape__Area":4075396.48828125,"Shape__Length":9475.023163673859},{"_id":3101,"AREA_ID":25886715,"AREA_ATTR_ID":25926682,"PARENT_AREA_ID":49885,"AREA_SHORT_CODE":2,"AREA_LONG_CODE":2,"AREA_NAME":"Mount Olive-Silverstone-Jamestown (2)","AREA_DESC":"Mount Olive-Silverstone-Jamestown (2)","X":null,"Y":null,"LONGITUDE":-79.58725926460001,"LATITUDE":43.7468678027,"OBJECTID":16491825,"Shape__Area":8893568.4921875,"Shape__Length":17941.0195569048},{"_id":3102,"AREA_ID":25886815,"AREA_ATTR_ID":25926683,"PARENT_AREA_ID":49885,"AREA_SHORT_CODE":99,"AREA_LONG_CODE":99,"AREA_NAME":"Mount Pleasant East (99)","AREA_DESC":"Mount Pleasant East (99)","X":null,"Y":null,"LONGITUDE":-79.3849239458,"LATITUDE":43.7048521692,"OBJECTID":16491841,"Shape__Area":5914749.859375,"Shape__Length":15568.659275605802},{"_id":3103,"AREA_ID":25886818,"AREA_ATTR_ID":25926684,"PARENT_AREA_ID":49885,"AREA_SHORT_CODE":104,"AREA_LONG_CODE":104,"AREA_NAME":"Mount Pleasant West (104)","AREA_DESC":"Mount Pleasant West (104)","X":null,"Y":null,"LONGITUDE":-79.393359554,"LATITUDE":43.70443517060001,"OBJECTID":16491857,"Shape__Area":2572073.6484375,"Shape__Length":7176.4652654827405},{"_id":3104,"AREA_ID":25886797,"AREA_ATTR_ID":25926685,"PARENT_AREA_ID":49885,"AREA_SHORT_CODE":18,"AREA_LONG_CODE":18,"AREA_NAME":"New Toronto (18)","AREA_DESC":"New Toronto (18)","X":null,"Y":null,"LONGITUDE":-79.5103580889,"LATITUDE":43.6005885981,"OBJECTID":16491873,"Shape__Area":6643702.40234375,"Shape__Length":15640.7447891926},{"_id":3105,"AREA_ID":25886561,"AREA_ATTR_ID":25926686,"PARENT_AREA_ID":49885,"AREA_SHORT_CODE":50,"AREA_LONG_CODE":50,"AREA_NAME":"Newtonbrook East (50)","AREA_DESC":"Newtonbrook East (50)","X":null,"Y":null,"LONGITUDE":-79.4059374472,"LATITUDE":43.791535791,"OBJECTID":16491889,"Shape__Area":7844179.6640625,"Shape__Length":11218.6548679357},{"_id":3106,"AREA_ID":25886566,"AREA_ATTR_ID":25926687,"PARENT_AREA_ID":49885,"AREA_SHORT_CODE":36,"AREA_LONG_CODE":36,"AREA_NAME":"Newtonbrook West (36)","AREA_DESC":"Newtonbrook West (36)","X":null,"Y":null,"LONGITUDE":-79.4314215112,"LATITUDE":43.7858299384,"OBJECTID":16491905,"Shape__Area":9015927.61328125,"Shape__Length":11964.2963713556},{"_id":3107,"AREA_ID":25886988,"AREA_ATTR_ID":25926688,"PARENT_AREA_ID":49885,"AREA_SHORT_CODE":82,"AREA_LONG_CODE":82,"AREA_NAME":"Niagara (82)","AREA_DESC":"Niagara (82)","X":null,"Y":null,"LONGITUDE":-79.412420401,"LATITUDE":43.6366808791,"OBJECTID":16491921,"Shape__Area":6192650.890625,"Shape__Length":15209.513428869299},{"_id":3108,"AREA_ID":25886877,"AREA_ATTR_ID":25926689,"PARENT_AREA_ID":49885,"AREA_SHORT_CODE":68,"AREA_LONG_CODE":68,"AREA_NAME":"North Riverdale (68)","AREA_DESC":"North Riverdale (68)","X":null,"Y":null,"LONGITUDE":-79.3512604136,"LATITUDE":43.671995149,"OBJECTID":16491937,"Shape__Area":3416312.26953125,"Shape__Length":7571.59952374999},{"_id":3109,"AREA_ID":25886899,"AREA_ATTR_ID":25926690,"PARENT_AREA_ID":49885,"AREA_SHORT_CODE":74,"AREA_LONG_CODE":74,"AREA_NAME":"North St.James Town (74)","AREA_DESC":"North St.James Town (74)","X":null,"Y":null,"LONGITUDE":-79.3752465775,"LATITUDE":43.6696234081,"OBJECTID":16491953,"Shape__Area":811303.94140625,"Shape__Length":3559.28385348127},{"_id":3110,"AREA_ID":25886330,"AREA_ATTR_ID":25926691,"PARENT_AREA_ID":49885,"AREA_SHORT_CODE":54,"AREA_LONG_CODE":54,"AREA_NAME":"O'Connor-Parkview (54)","AREA_DESC":"O'Connor-Parkview (54)","X":null,"Y":null,"LONGITUDE":-79.3122277655,"LATITUDE":43.7068004906,"OBJECTID":16491969,"Shape__Area":9338495.62109375,"Shape__Length":15115.715645164699},{"_id":3111,"AREA_ID":25886548,"AREA_ATTR_ID":25926692,"PARENT_AREA_ID":49885,"AREA_SHORT_CODE":121,"AREA_LONG_CODE":121,"AREA_NAME":"Oakridge (121)","AREA_DESC":"Oakridge (121)","X":null,"Y":null,"LONGITUDE":-79.2797083433,"LATITUDE":43.6974081338,"OBJECTID":16491985,"Shape__Area":3596139.15625,"Shape__Length":10807.5168826764},{"_id":3112,"AREA_ID":25886374,"AREA_ATTR_ID":25926693,"PARENT_AREA_ID":49885,"AREA_SHORT_CODE":107,"AREA_LONG_CODE":107,"AREA_NAME":"Oakwood Village (107)","AREA_DESC":"Oakwood Village (107)","X":null,"Y":null,"LONGITUDE":-79.4397854793,"LATITUDE":43.6885655593,"OBJECTID":16492001,"Shape__Area":4247608.03125,"Shape__Length":8766.9617614774},{"_id":3113,"AREA_ID":25886344,"AREA_ATTR_ID":25926694,"PARENT_AREA_ID":49885,"AREA_SHORT_CODE":58,"AREA_LONG_CODE":58,"AREA_NAME":"Old East York (58)","AREA_DESC":"Old East York (58)","X":null,"Y":null,"LONGITUDE":-79.3354883594,"LATITUDE":43.696781271199995,"OBJECTID":16492017,"Shape__Area":4498352.796875,"Shape__Length":10350.9776525069},{"_id":3114,"AREA_ID":25886932,"AREA_ATTR_ID":25926695,"PARENT_AREA_ID":49885,"AREA_SHORT_CODE":80,"AREA_LONG_CODE":80,"AREA_NAME":"Palmerston-Little Italy (80)","AREA_DESC":"Palmerston-Little Italy (80)","X":null,"Y":null,"LONGITUDE":-79.41840872739999,"LATITUDE":43.6591571037,"OBJECTID":16492033,"Shape__Area":2744200.06640625,"Shape__Length":6866.2468428946495},{"_id":3115,"AREA_ID":25886615,"AREA_ATTR_ID":25926696,"PARENT_AREA_ID":49885,"AREA_SHORT_CODE":45,"AREA_LONG_CODE":45,"AREA_NAME":"Parkwoods-Donalda (45)","AREA_DESC":"Parkwoods-Donalda (45)","X":null,"Y":null,"LONGITUDE":-79.3301795171,"LATITUDE":43.755033474499996,"OBJECTID":16492049,"Shape__Area":14316804.4375,"Shape__Length":18626.183746276798},{"_id":3116,"AREA_ID":25886695,"AREA_ATTR_ID":25926697,"PARENT_AREA_ID":49885,"AREA_SHORT_CODE":23,"AREA_LONG_CODE":23,"AREA_NAME":"Pelmo Park-Humberlea (23)","AREA_DESC":"Pelmo Park-Humberlea (23)","X":null,"Y":null,"LONGITUDE":-79.52828220239999,"LATITUDE":43.7175146009,"OBJECTID":16492065,"Shape__Area":8192344.85546875,"Shape__Length":19153.4021066041},{"_id":3117,"AREA_ID":25886360,"AREA_ATTR_ID":25926698,"PARENT_AREA_ID":49885,"AREA_SHORT_CODE":67,"AREA_LONG_CODE":67,"AREA_NAME":"Playter Estates-Danforth (67)","AREA_DESC":"Playter Estates-Danforth (67)","X":null,"Y":null,"LONGITUDE":-79.3548872857,"LATITUDE":43.6797004697,"OBJECTID":16492081,"Shape__Area":1698162.9375,"Shape__Length":6222.9097448711},{"_id":3118,"AREA_ID":25886564,"AREA_ATTR_ID":25926699,"PARENT_AREA_ID":49885,"AREA_SHORT_CODE":46,"AREA_LONG_CODE":46,"AREA_NAME":"Pleasant View (46)","AREA_DESC":"Pleasant View (46)","X":null,"Y":null,"LONGITUDE":-79.33494842520001,"LATITUDE":43.786981759,"OBJECTID":16492097,"Shape__Area":5697613.30078125,"Shape__Length":11016.7117697511},{"_id":3119,"AREA_ID":25886756,"AREA_ATTR_ID":25926700,"PARENT_AREA_ID":49885,"AREA_SHORT_CODE":10,"AREA_LONG_CODE":10,"AREA_NAME":"Princess-Rosethorn (10)","AREA_DESC":"Princess-Rosethorn (10)","X":null,"Y":null,"LONGITUDE":-79.5445592919,"LATITUDE":43.666050604300004,"OBJECTID":16492113,"Shape__Area":9890472.71875,"Shape__Length":15289.1963276768},{"_id":3120,"AREA_ID":25886929,"AREA_ATTR_ID":25926701,"PARENT_AREA_ID":49885,"AREA_SHORT_CODE":72,"AREA_LONG_CODE":72,"AREA_NAME":"Regent Park (72)","AREA_DESC":"Regent Park (72)","X":null,"Y":null,"LONGITUDE":-79.3605088051,"LATITUDE":43.659992142200004,"OBJECTID":16492129,"Shape__Area":1243325.54296875,"Shape__Length":4505.92406593949},{"_id":3121,"AREA_ID":25886730,"AREA_ATTR_ID":25926702,"PARENT_AREA_ID":49885,"AREA_SHORT_CODE":4,"AREA_LONG_CODE":4,"AREA_NAME":"Rexdale-Kipling (4)","AREA_DESC":"Rexdale-Kipling (4)","X":null,"Y":null,"LONGITUDE":-79.5662284127,"LATITUDE":43.723725477200006,"OBJECTID":16492145,"Shape__Area":4801397.484375,"Shape__Length":9788.58653403915},{"_id":3122,"AREA_ID":25886396,"AREA_ATTR_ID":25926703,"PARENT_AREA_ID":49885,"AREA_SHORT_CODE":111,"AREA_LONG_CODE":111,"AREA_NAME":"Rockcliffe-Smythe (111)","AREA_DESC":"Rockcliffe-Smythe (111)","X":null,"Y":null,"LONGITUDE":-79.4944204513,"LATITUDE":43.6747904521,"OBJECTID":16492161,"Shape__Area":9700564.47265625,"Shape__Length":16065.5953604596},{"_id":3123,"AREA_ID":25886970,"AREA_ATTR_ID":25926704,"PARENT_AREA_ID":49885,"AREA_SHORT_CODE":86,"AREA_LONG_CODE":86,"AREA_NAME":"Roncesvalles (86)","AREA_DESC":"Roncesvalles (86)","X":null,"Y":null,"LONGITUDE":-79.4429924472,"LATITUDE":43.646122994399995,"OBJECTID":16492177,"Shape__Area":2875399.1484375,"Shape__Length":8521.476352990841},{"_id":3124,"AREA_ID":25886836,"AREA_ATTR_ID":25926705,"PARENT_AREA_ID":49885,"AREA_SHORT_CODE":98,"AREA_LONG_CODE":98,"AREA_NAME":"Rosedale-Moore Park (98)","AREA_DESC":"Rosedale-Moore Park (98)","X":null,"Y":null,"LONGITUDE":-79.3796694025,"LATITUDE":43.682820425299994,"OBJECTID":16492193,"Shape__Area":8933716.91015625,"Shape__Length":13367.4727142992},{"_id":3125,"AREA_ID":25886407,"AREA_ATTR_ID":25926706,"PARENT_AREA_ID":49885,"AREA_SHORT_CODE":131,"AREA_LONG_CODE":131,"AREA_NAME":"Rouge (131)","AREA_DESC":"Rouge (131)","X":null,"Y":null,"LONGITUDE":-79.1863434458,"LATITUDE":43.8212012569,"OBJECTID":16492209,"Shape__Area":72144023.65625,"Shape__Length":50039.5785323886},{"_id":3126,"AREA_ID":25886402,"AREA_ATTR_ID":25926707,"PARENT_AREA_ID":49885,"AREA_SHORT_CODE":89,"AREA_LONG_CODE":89,"AREA_NAME":"Runnymede-Bloor West Village (89)","AREA_DESC":"Runnymede-Bloor West Village (89)","X":null,"Y":null,"LONGITUDE":-79.485708182,"LATITUDE":43.6592688193,"OBJECTID":16492225,"Shape__Area":3047728.390625,"Shape__Length":9331.96515622115},{"_id":3127,"AREA_ID":25886704,"AREA_ATTR_ID":25926708,"PARENT_AREA_ID":49885,"AREA_SHORT_CODE":28,"AREA_LONG_CODE":28,"AREA_NAME":"Rustic (28)","AREA_DESC":"Rustic (28)","X":null,"Y":null,"LONGITUDE":-79.4980914696,"LATITUDE":43.7116091166,"OBJECTID":16492241,"Shape__Area":4015390.45703125,"Shape__Length":8151.876887934571},{"_id":3128,"AREA_ID":25886515,"AREA_ATTR_ID":25926709,"PARENT_AREA_ID":49885,"AREA_SHORT_CODE":139,"AREA_LONG_CODE":139,"AREA_NAME":"Scarborough Village (139)","AREA_DESC":"Scarborough Village (139)","X":null,"Y":null,"LONGITUDE":-79.216812619,"LATITUDE":43.7386518596,"OBJECTID":16492257,"Shape__Area":6040096.1796875,"Shape__Length":10973.560768097199},{"_id":3129,"AREA_ID":25886994,"AREA_ATTR_ID":25926710,"PARENT_AREA_ID":49885,"AREA_SHORT_CODE":85,"AREA_LONG_CODE":85,"AREA_NAME":"South Parkdale (85)","AREA_DESC":"South Parkdale (85)","X":null,"Y":null,"LONGITUDE":-79.43933783119999,"LATITUDE":43.6366995242,"OBJECTID":16492273,"Shape__Area":4369538.9140625,"Shape__Length":14918.8548441732},{"_id":3130,"AREA_ID":25886893,"AREA_ATTR_ID":25926711,"PARENT_AREA_ID":49885,"AREA_SHORT_CODE":70,"AREA_LONG_CODE":70,"AREA_NAME":"South Riverdale (70)","AREA_DESC":"South Riverdale (70)","X":null,"Y":null,"LONGITUDE":-79.335651321,"LATITUDE":43.649292063500006,"OBJECTID":16492289,"Shape__Area":20956715.6328125,"Shape__Length":59561.0247576352},{"_id":3131,"AREA_ID":25886620,"AREA_ATTR_ID":25926712,"PARENT_AREA_ID":49885,"AREA_SHORT_CODE":40,"AREA_LONG_CODE":40,"AREA_NAME":"St.Andrew-Windfields (40)","AREA_DESC":"St.Andrew-Windfields (40)","X":null,"Y":null,"LONGITUDE":-79.37903708649999,"LATITUDE":43.7562458348,"OBJECTID":16492305,"Shape__Area":14001787.1171875,"Shape__Length":18026.094798224898},{"_id":3132,"AREA_ID":25886419,"AREA_ATTR_ID":25926713,"PARENT_AREA_ID":49885,"AREA_SHORT_CODE":116,"AREA_LONG_CODE":116,"AREA_NAME":"Steeles (116)","AREA_DESC":"Steeles (116)","X":null,"Y":null,"LONGITUDE":-79.3212070061,"LATITUDE":43.812958825900004,"OBJECTID":16492321,"Shape__Area":8765411.3203125,"Shape__Length":12392.94285518},{"_id":3133,"AREA_ID":25886776,"AREA_ATTR_ID":25926714,"PARENT_AREA_ID":49885,"AREA_SHORT_CODE":16,"AREA_LONG_CODE":16,"AREA_NAME":"Stonegate-Queensway (16)","AREA_DESC":"Stonegate-Queensway (16)","X":null,"Y":null,"LONGITUDE":-79.50112821329999,"LATITUDE":43.635518132899996,"OBJECTID":16492337,"Shape__Area":15181353.6953125,"Shape__Length":16379.8063162906},{"_id":3134,"AREA_ID":25886464,"AREA_ATTR_ID":25926715,"PARENT_AREA_ID":49885,"AREA_SHORT_CODE":118,"AREA_LONG_CODE":118,"AREA_NAME":"Tam O'Shanter-Sullivan (118)","AREA_DESC":"Tam O'Shanter-Sullivan (118)","X":null,"Y":null,"LONGITUDE":-79.3029187122,"LATITUDE":43.7801298547,"OBJECTID":16492353,"Shape__Area":10408542.9921875,"Shape__Length":14891.4889417804},{"_id":3135,"AREA_ID":25886342,"AREA_ATTR_ID":25926716,"PARENT_AREA_ID":49885,"AREA_SHORT_CODE":61,"AREA_LONG_CODE":61,"AREA_NAME":"Taylor-Massey (61)","AREA_DESC":"Taylor-Massey (61)","X":null,"Y":null,"LONGITUDE":-79.2959011188,"LATITUDE":43.6949981893,"OBJECTID":16492369,"Shape__Area":2034614.36328125,"Shape__Length":8222.59169315955},{"_id":3136,"AREA_ID":25886863,"AREA_ATTR_ID":25926717,"PARENT_AREA_ID":49885,"AREA_SHORT_CODE":63,"AREA_LONG_CODE":63,"AREA_NAME":"The Beaches (63)","AREA_DESC":"The Beaches (63)","X":null,"Y":null,"LONGITUDE":-79.2996013043,"LATITUDE":43.671049993100006,"OBJECTID":16492385,"Shape__Area":6877394.375,"Shape__Length":15586.2976675559},{"_id":3137,"AREA_ID":25886723,"AREA_ATTR_ID":25926718,"PARENT_AREA_ID":49885,"AREA_SHORT_CODE":3,"AREA_LONG_CODE":3,"AREA_NAME":"Thistletown-Beaumond Heights (3)","AREA_DESC":"Thistletown-Beaumond Heights (3)","X":null,"Y":null,"LONGITUDE":-79.56349101720001,"LATITUDE":43.737987917299996,"OBJECTID":16492401,"Shape__Area":6402350.50390625,"Shape__Length":14990.737780628},{"_id":3138,"AREA_ID":25886334,"AREA_ATTR_ID":25926719,"PARENT_AREA_ID":49885,"AREA_SHORT_CODE":55,"AREA_LONG_CODE":55,"AREA_NAME":"Thorncliffe Park (55)","AREA_DESC":"Thorncliffe Park (55)","X":null,"Y":null,"LONGITUDE":-79.3499836075,"LATITUDE":43.707749211899994,"OBJECTID":16492417,"Shape__Area":5987290.59375,"Shape__Length":10380.5566648325},{"_id":3139,"AREA_ID":25886965,"AREA_ATTR_ID":25926720,"PARENT_AREA_ID":49885,"AREA_SHORT_CODE":81,"AREA_LONG_CODE":81,"AREA_NAME":"Trinity-Bellwoods (81)","AREA_DESC":"Trinity-Bellwoods (81)","X":null,"Y":null,"LONGITUDE":-79.4153421634,"LATITUDE":43.6501763,"OBJECTID":16492433,"Shape__Area":3306038.234375,"Shape__Length":7385.141049219971},{"_id":3140,"AREA_ID":25886920,"AREA_ATTR_ID":25926721,"PARENT_AREA_ID":49885,"AREA_SHORT_CODE":79,"AREA_LONG_CODE":79,"AREA_NAME":"University (79)","AREA_DESC":"University (79)","X":null,"Y":null,"LONGITUDE":-79.401179748,"LATITUDE":43.6625062026,"OBJECTID":16492449,"Shape__Area":2687049.7265625,"Shape__Length":6872.849905972061},{"_id":3141,"AREA_ID":25886670,"AREA_ATTR_ID":25926722,"PARENT_AREA_ID":49885,"AREA_SHORT_CODE":43,"AREA_LONG_CODE":43,"AREA_NAME":"Victoria Village (43)","AREA_DESC":"Victoria Village (43)","X":null,"Y":null,"LONGITUDE":-79.31487382649999,"LATITUDE":43.728489019399994,"OBJECTID":16492465,"Shape__Area":9112591.63671875,"Shape__Length":16335.4580528444},{"_id":3142,"AREA_ID":25886962,"AREA_ATTR_ID":25926723,"PARENT_AREA_ID":49885,"AREA_SHORT_CODE":77,"AREA_LONG_CODE":77,"AREA_NAME":"Waterfront Communities-The Island (77)","AREA_DESC":"Waterfront Communities-The Island (77)","X":null,"Y":null,"LONGITUDE":-79.3772023146,"LATITUDE":43.6338803623,"OBJECTID":16492481,"Shape__Area":25629771.140625,"Shape__Length":25382.7065861629},{"_id":3143,"AREA_ID":25886480,"AREA_ATTR_ID":25926724,"PARENT_AREA_ID":49885,"AREA_SHORT_CODE":136,"AREA_LONG_CODE":136,"AREA_NAME":"West Hill (136)","AREA_DESC":"West Hill (136)","X":null,"Y":null,"LONGITUDE":-79.1766760264,"LATITUDE":43.7674902567,"OBJECTID":16492497,"Shape__Area":18467681.324218802,"Shape__Length":20739.008212439},{"_id":3144,"AREA_ID":25886718,"AREA_ATTR_ID":25926725,"PARENT_AREA_ID":49885,"AREA_SHORT_CODE":1,"AREA_LONG_CODE":1,"AREA_NAME":"West Humber-Clairville (1)","AREA_DESC":"West Humber-Clairville (1)","X":null,"Y":null,"LONGITUDE":-79.59635645350001,"LATITUDE":43.7161804033,"OBJECTID":16492513,"Shape__Area":57751307.3984375,"Shape__Length":38675.347815836605},{"_id":3145,"AREA_ID":25886577,"AREA_ATTR_ID":25926726,"PARENT_AREA_ID":49885,"AREA_SHORT_CODE":35,"AREA_LONG_CODE":35,"AREA_NAME":"Westminster-Branson (35)","AREA_DESC":"Westminster-Branson (35)","X":null,"Y":null,"LONGITUDE":-79.4524182256,"LATITUDE":43.7788132165,"OBJECTID":16492529,"Shape__Area":7040804.01171875,"Shape__Length":15929.5150727128},{"_id":3146,"AREA_ID":25886362,"AREA_ATTR_ID":25926727,"PARENT_AREA_ID":49885,"AREA_SHORT_CODE":113,"AREA_LONG_CODE":113,"AREA_NAME":"Weston (113)","AREA_DESC":"Weston (113)","X":null,"Y":null,"LONGITUDE":-79.5157225505,"LATITUDE":43.702716046300004,"OBJECTID":16492545,"Shape__Area":4912767.89453125,"Shape__Length":14113.249584531799},{"_id":3147,"AREA_ID":25886870,"AREA_ATTR_ID":25926728,"PARENT_AREA_ID":49885,"AREA_SHORT_CODE":91,"AREA_LONG_CODE":91,"AREA_NAME":"Weston-Pellam Park (91)","AREA_DESC":"Weston-Pellam Park (91)","X":null,"Y":null,"LONGITUDE":-79.4602439114,"LATITUDE":43.67396203770001,"OBJECTID":16492561,"Shape__Area":2794056.953125,"Shape__Length":7655.243604987951},{"_id":3148,"AREA_ID":25886494,"AREA_ATTR_ID":25926729,"PARENT_AREA_ID":49885,"AREA_SHORT_CODE":119,"AREA_LONG_CODE":119,"AREA_NAME":"Wexford/Maryvale (119)","AREA_DESC":"Wexford/Maryvale (119)","X":null,"Y":null,"LONGITUDE":-79.2986365699,"LATITUDE":43.7485721411,"OBJECTID":16492577,"Shape__Area":19681963.171875,"Shape__Length":19657.2340680029},{"_id":3149,"AREA_ID":25886590,"AREA_ATTR_ID":25926730,"PARENT_AREA_ID":49885,"AREA_SHORT_CODE":51,"AREA_LONG_CODE":51,"AREA_NAME":"Willowdale East (51)","AREA_DESC":"Willowdale East (51)","X":null,"Y":null,"LONGITUDE":-79.40148378960001,"LATITUDE":43.7706022616,"OBJECTID":16492593,"Shape__Area":9712453.09375,"Shape__Length":13142.255078446102},{"_id":3150,"AREA_ID":25886598,"AREA_ATTR_ID":25926731,"PARENT_AREA_ID":49885,"AREA_SHORT_CODE":37,"AREA_LONG_CODE":37,"AREA_NAME":"Willowdale West (37)","AREA_DESC":"Willowdale West (37)","X":null,"Y":null,"LONGITUDE":-79.4275578,"LATITUDE":43.771210491800005,"OBJECTID":16492609,"Shape__Area":5533653.19140625,"Shape__Length":10354.9904368202},{"_id":3151,"AREA_ID":25886745,"AREA_ATTR_ID":25926732,"PARENT_AREA_ID":49885,"AREA_SHORT_CODE":7,"AREA_LONG_CODE":7,"AREA_NAME":"Willowridge-Martingrove-Richview (7)","AREA_DESC":"Willowridge-Martingrove-Richview (7)","X":null,"Y":null,"LONGITUDE":-79.5542210494,"LATITUDE":43.683644963,"OBJECTID":16492625,"Shape__Area":10558603.3867188,"Shape__Length":16679.0237222161},{"_id":3152,"AREA_ID":25886473,"AREA_ATTR_ID":25926733,"PARENT_AREA_ID":49885,"AREA_SHORT_CODE":137,"AREA_LONG_CODE":137,"AREA_NAME":"Woburn (137)","AREA_DESC":"Woburn (137)","X":null,"Y":null,"LONGITUDE":-79.2285857671,"LATITUDE":43.766740239300006,"OBJECTID":16492641,"Shape__Area":23664994.2109375,"Shape__Length":25089.8154233417},{"_id":3153,"AREA_ID":25886850,"AREA_ATTR_ID":25926734,"PARENT_AREA_ID":49885,"AREA_SHORT_CODE":64,"AREA_LONG_CODE":64,"AREA_NAME":"Woodbine Corridor (64)","AREA_DESC":"Woodbine Corridor (64)","X":null,"Y":null,"LONGITUDE":-79.3154073786,"LATITUDE":43.6767729247,"OBJECTID":16492657,"Shape__Area":3052518.0546875,"Shape__Length":7512.966772667571},{"_id":3154,"AREA_ID":25886347,"AREA_ATTR_ID":25926735,"PARENT_AREA_ID":49885,"AREA_SHORT_CODE":60,"AREA_LONG_CODE":60,"AREA_NAME":"Woodbine-Lumsden (60)","AREA_DESC":"Woodbine-Lumsden (60)","X":null,"Y":null,"LONGITUDE":-79.3111635266,"LATITUDE":43.694106742399995,"OBJECTID":16492673,"Shape__Area":2289738.0625,"Shape__Length":6740.993554306469},{"_id":3155,"AREA_ID":25886428,"AREA_ATTR_ID":25926736,"PARENT_AREA_ID":49885,"AREA_SHORT_CODE":129,"AREA_LONG_CODE":129,"AREA_NAME":"Agincourt North (129)","AREA_DESC":"Agincourt North (129)","X":null,"Y":null,"LONGITUDE":-79.266712166,"LATITUDE":43.8054405769,"OBJECTID":16492689,"Shape__Area":13951450.035156302,"Shape__Length":17159.740667063703},{"_id":3156,"AREA_ID":25886449,"AREA_ATTR_ID":25926737,"PARENT_AREA_ID":49885,"AREA_SHORT_CODE":128,"AREA_LONG_CODE":128,"AREA_NAME":"Agincourt South-Malvern West (128)","AREA_DESC":"Agincourt South-Malvern West (128)","X":null,"Y":null,"LONGITUDE":-79.2656117966,"LATITUDE":43.788657551099995,"OBJECTID":16492705,"Shape__Area":15117359.769531302,"Shape__Length":21320.8495465682},{"_id":3157,"AREA_ID":25886794,"AREA_ATTR_ID":25926738,"PARENT_AREA_ID":49885,"AREA_SHORT_CODE":20,"AREA_LONG_CODE":20,"AREA_NAME":"Alderwood (20)","AREA_DESC":"Alderwood (20)","X":null,"Y":null,"LONGITUDE":-79.5416109273,"LATITUDE":43.6049368959,"OBJECTID":16492721,"Shape__Area":9502179.58203125,"Shape__Length":12667.013917313501},{"_id":3158,"AREA_ID":25886874,"AREA_ATTR_ID":25926739,"PARENT_AREA_ID":49885,"AREA_SHORT_CODE":95,"AREA_LONG_CODE":95,"AREA_NAME":"Annex (95)","AREA_DESC":"Annex (95)","X":null,"Y":null,"LONGITUDE":-79.4040006243,"LATITUDE":43.6715854351,"OBJECTID":16492737,"Shape__Area":5337191.83203125,"Shape__Length":10513.883142614899},{"_id":3159,"AREA_ID":25886643,"AREA_ATTR_ID":25926740,"PARENT_AREA_ID":49885,"AREA_SHORT_CODE":42,"AREA_LONG_CODE":42,"AREA_NAME":"Banbury-Don Mills (42)","AREA_DESC":"Banbury-Don Mills (42)","X":null,"Y":null,"LONGITUDE":-79.3497179808,"LATITUDE":43.737657004300004,"OBJECTID":16492753,"Shape__Area":19248965.984375,"Shape__Length":25141.5722902612},{"_id":3160,"AREA_ID":25886586,"AREA_ATTR_ID":25926741,"PARENT_AREA_ID":49885,"AREA_SHORT_CODE":34,"AREA_LONG_CODE":34,"AREA_NAME":"Bathurst Manor (34)","AREA_DESC":"Bathurst Manor (34)","X":null,"Y":null,"LONGITUDE":-79.4560551588,"LATITUDE":43.7648133077,"OBJECTID":16492769,"Shape__Area":9133974.17578125,"Shape__Length":20183.9258406017},{"_id":3161,"AREA_ID":25886914,"AREA_ATTR_ID":25926742,"PARENT_AREA_ID":49885,"AREA_SHORT_CODE":76,"AREA_LONG_CODE":76,"AREA_NAME":"Bay Street Corridor (76)","AREA_DESC":"Bay Street Corridor (76)","X":null,"Y":null,"LONGITUDE":-79.3857212509,"LATITUDE":43.6575113467,"OBJECTID":16492785,"Shape__Area":3459075.19921875,"Shape__Length":9594.33604534639},{"_id":3162,"AREA_ID":25886579,"AREA_ATTR_ID":25926743,"PARENT_AREA_ID":49885,"AREA_SHORT_CODE":52,"AREA_LONG_CODE":52,"AREA_NAME":"Bayview Village (52)","AREA_DESC":"Bayview Village (52)","X":null,"Y":null,"LONGITUDE":-79.3771168597,"LATITUDE":43.7763605236,"OBJECTID":16492801,"Shape__Area":9902532.76953125,"Shape__Length":13169.0201871093},{"_id":3163,"AREA_ID":25886558,"AREA_ATTR_ID":25926744,"PARENT_AREA_ID":49885,"AREA_SHORT_CODE":49,"AREA_LONG_CODE":49,"AREA_NAME":"Bayview Woods-Steeles (49)","AREA_DESC":"Bayview Woods-Steeles (49)","X":null,"Y":null,"LONGITUDE":-79.3821179542,"LATITUDE":43.7968018666,"OBJECTID":16492817,"Shape__Area":7853671.1796875,"Shape__Length":11439.1661253709},{"_id":3164,"AREA_ID":25886655,"AREA_ATTR_ID":25926745,"PARENT_AREA_ID":49885,"AREA_SHORT_CODE":39,"AREA_LONG_CODE":39,"AREA_NAME":"Bedford Park-Nortown (39)","AREA_DESC":"Bedford Park-Nortown (39)","X":null,"Y":null,"LONGITUDE":-79.4202273481,"LATITUDE":43.731486231800005,"OBJECTID":16492833,"Shape__Area":10576259.859375,"Shape__Length":17755.857559562},{"_id":3165,"AREA_ID":25886370,"AREA_ATTR_ID":25926746,"PARENT_AREA_ID":49885,"AREA_SHORT_CODE":112,"AREA_LONG_CODE":112,"AREA_NAME":"Beechborough-Greenbrook (112)","AREA_DESC":"Beechborough-Greenbrook (112)","X":null,"Y":null,"LONGITUDE":-79.4794725057,"LATITUDE":43.6932164866,"OBJECTID":16492849,"Shape__Area":3509860.16796875,"Shape__Length":8866.793417205608},{"_id":3166,"AREA_ID":25886482,"AREA_ATTR_ID":25926747,"PARENT_AREA_ID":49885,"AREA_SHORT_CODE":127,"AREA_LONG_CODE":127,"AREA_NAME":"Bendale (127)","AREA_DESC":"Bendale (127)","X":null,"Y":null,"LONGITUDE":-79.2574003723,"LATITUDE":43.7603663086,"OBJECTID":16492865,"Shape__Area":14303503.558593802,"Shape__Length":18255.148497183898},{"_id":3167,"AREA_ID":25886542,"AREA_ATTR_ID":25926748,"PARENT_AREA_ID":49885,"AREA_SHORT_CODE":122,"AREA_LONG_CODE":122,"AREA_NAME":"Birchcliffe-Cliffside (122)","AREA_DESC":"Birchcliffe-Cliffside (122)","X":null,"Y":null,"LONGITUDE":-79.2650925923,"LATITUDE":43.694681978599995,"OBJECTID":16492881,"Shape__Area":11501889.4960938,"Shape__Length":20339.5667802246},{"_id":3168,"AREA_ID":25886607,"AREA_ATTR_ID":25926749,"PARENT_AREA_ID":49885,"AREA_SHORT_CODE":24,"AREA_LONG_CODE":24,"AREA_NAME":"Black Creek (24)","AREA_DESC":"Black Creek (24)","X":null,"Y":null,"LONGITUDE":-79.5219793188,"LATITUDE":43.7648902472,"OBJECTID":16492897,"Shape__Area":6627277.59375,"Shape__Length":11691.7270181546},{"_id":3169,"AREA_ID":25886867,"AREA_ATTR_ID":25926750,"PARENT_AREA_ID":49885,"AREA_SHORT_CODE":69,"AREA_LONG_CODE":69,"AREA_NAME":"Blake-Jones (69)","AREA_DESC":"Blake-Jones (69)","X":null,"Y":null,"LONGITUDE":-79.3373941732,"LATITUDE":43.67617287979999,"OBJECTID":16492913,"Shape__Area":1800511.671875,"Shape__Length":5592.4698026736905},{"_id":3170,"AREA_ID":25886365,"AREA_ATTR_ID":25926751,"PARENT_AREA_ID":49885,"AREA_SHORT_CODE":108,"AREA_LONG_CODE":108,"AREA_NAME":"Briar Hill-Belgravia (108)","AREA_DESC":"Briar Hill-Belgravia (108)","X":null,"Y":null,"LONGITUDE":-79.4528512962,"LATITUDE":43.699024381,"OBJECTID":16492929,"Shape__Area":3504255.23828125,"Shape__Length":8697.30152569875},{"_id":3171,"AREA_ID":25886663,"AREA_ATTR_ID":25926752,"PARENT_AREA_ID":49885,"AREA_SHORT_CODE":41,"AREA_LONG_CODE":41,"AREA_NAME":"Bridle Path-Sunnybrook-York Mills (41)","AREA_DESC":"Bridle Path-Sunnybrook-York Mills (41)","X":null,"Y":null,"LONGITUDE":-79.3789041759,"LATITUDE":43.7310131378,"OBJECTID":16492945,"Shape__Area":16939139.394531302,"Shape__Length":21666.0183651052},{"_id":3172,"AREA_ID":25886351,"AREA_ATTR_ID":25926753,"PARENT_AREA_ID":49885,"AREA_SHORT_CODE":57,"AREA_LONG_CODE":57,"AREA_NAME":"Broadview North (57)","AREA_DESC":"Broadview North (57)","X":null,"Y":null,"LONGITUDE":-79.3556295118,"LATITUDE":43.688825119200004,"OBJECTID":16492961,"Shape__Area":3341473.03515625,"Shape__Length":9933.014855000809},{"_id":3173,"AREA_ID":25886711,"AREA_ATTR_ID":25926754,"PARENT_AREA_ID":49885,"AREA_SHORT_CODE":30,"AREA_LONG_CODE":30,"AREA_NAME":"Brookhaven-Amesbury (30)","AREA_DESC":"Brookhaven-Amesbury (30)","X":null,"Y":null,"LONGITUDE":-79.485589259,"LATITUDE":43.701326305600006,"OBJECTID":16492977,"Shape__Area":6715561.50390625,"Shape__Length":12417.0555589134},{"_id":3174,"AREA_ID":25886908,"AREA_ATTR_ID":25926755,"PARENT_AREA_ID":49885,"AREA_SHORT_CODE":71,"AREA_LONG_CODE":71,"AREA_NAME":"Cabbagetown-South St.James Town (71)","AREA_DESC":"Cabbagetown-South St.James Town (71)","X":null,"Y":null,"LONGITUDE":-79.36610665810001,"LATITUDE":43.667647727399995,"OBJECTID":16492993,"Shape__Area":2711741.58984375,"Shape__Length":7962.83306017735},{"_id":3175,"AREA_ID":25886378,"AREA_ATTR_ID":25926756,"PARENT_AREA_ID":49885,"AREA_SHORT_CODE":109,"AREA_LONG_CODE":109,"AREA_NAME":"Caledonia-Fairbank (109)","AREA_DESC":"Caledonia-Fairbank (109)","X":null,"Y":null,"LONGITUDE":-79.4552120796,"LATITUDE":43.688568651000004,"OBJECTID":16493009,"Shape__Area":2955857.48828125,"Shape__Length":6849.91172413862},{"_id":3176,"AREA_ID":25886842,"AREA_ATTR_ID":25926757,"PARENT_AREA_ID":49885,"AREA_SHORT_CODE":96,"AREA_LONG_CODE":96,"AREA_NAME":"Casa Loma (96)","AREA_DESC":"Casa Loma (96)","X":null,"Y":null,"LONGITUDE":-79.4080066472,"LATITUDE":43.6818521005,"OBJECTID":16493025,"Shape__Area":3678384.54296875,"Shape__Length":8214.1764848522},{"_id":3177,"AREA_ID":25886458,"AREA_ATTR_ID":25926758,"PARENT_AREA_ID":49885,"AREA_SHORT_CODE":133,"AREA_LONG_CODE":133,"AREA_NAME":"Centennial Scarborough (133)","AREA_DESC":"Centennial Scarborough (133)","X":null,"Y":null,"LONGITUDE":-79.1508432723,"LATITUDE":43.7823764958,"OBJECTID":16493041,"Shape__Area":10496773.1523438,"Shape__Length":16683.674974794198},{"_id":3178,"AREA_ID":25886906,"AREA_ATTR_ID":25926759,"PARENT_AREA_ID":49885,"AREA_SHORT_CODE":75,"AREA_LONG_CODE":75,"AREA_NAME":"Church-Yonge Corridor (75)","AREA_DESC":"Church-Yonge Corridor (75)","X":null,"Y":null,"LONGITUDE":-79.3790171666,"LATITUDE":43.6596488635,"OBJECTID":16493057,"Shape__Area":2609013.9375,"Shape__Length":8785.41637465993},{"_id":3179,"AREA_ID":25886537,"AREA_ATTR_ID":25926760,"PARENT_AREA_ID":49885,"AREA_SHORT_CODE":120,"AREA_LONG_CODE":120,"AREA_NAME":"Clairlea-Birchmount (120)","AREA_DESC":"Clairlea-Birchmount (120)","X":null,"Y":null,"LONGITUDE":-79.28138178420001,"LATITUDE":43.713592375,"OBJECTID":16493073,"Shape__Area":14168539.2578125,"Shape__Length":22824.278747285298},{"_id":3180,"AREA_ID":25886648,"AREA_ATTR_ID":25926761,"PARENT_AREA_ID":49885,"AREA_SHORT_CODE":33,"AREA_LONG_CODE":33,"AREA_NAME":"Clanton Park (33)","AREA_DESC":"Clanton Park (33)","X":null,"Y":null,"LONGITUDE":-79.4463025758,"LATITUDE":43.7419784331,"OBJECTID":16493089,"Shape__Area":7942401.59765625,"Shape__Length":14050.036863269299},{"_id":3181,"AREA_ID":25886527,"AREA_ATTR_ID":25926762,"PARENT_AREA_ID":49885,"AREA_SHORT_CODE":123,"AREA_LONG_CODE":123,"AREA_NAME":"Cliffcrest (123)","AREA_DESC":"Cliffcrest (123)","X":null,"Y":null,"LONGITUDE":-79.2355295687,"LATITUDE":43.7211211669,"OBJECTID":16493105,"Shape__Area":13777192.71875,"Shape__Length":27614.9333826863},{"_id":3182,"AREA_ID":25886856,"AREA_ATTR_ID":25926763,"PARENT_AREA_ID":49885,"AREA_SHORT_CODE":92,"AREA_LONG_CODE":92,"AREA_NAME":"Corso Italia-Davenport (92)","AREA_DESC":"Corso Italia-Davenport (92)","X":null,"Y":null,"LONGITUDE":-79.4474693307,"LATITUDE":43.6776609067,"OBJECTID":16493121,"Shape__Area":3605718.796875,"Shape__Length":8404.231260789109},{"_id":3183,"AREA_ID":25886844,"AREA_ATTR_ID":25926764,"PARENT_AREA_ID":49885,"AREA_SHORT_CODE":66,"AREA_LONG_CODE":66,"AREA_NAME":"Danforth (66)","AREA_DESC":"Danforth (66)","X":null,"Y":null,"LONGITUDE":-79.32981940890001,"LATITUDE":43.6840254743,"OBJECTID":16493137,"Shape__Area":2142488.41796875,"Shape__Length":8613.17393662646},{"_id":3184,"AREA_ID":25886353,"AREA_ATTR_ID":25926765,"PARENT_AREA_ID":49885,"AREA_SHORT_CODE":59,"AREA_LONG_CODE":59,"AREA_NAME":"Danforth East York (59)","AREA_DESC":"Danforth East York (59)","X":null,"Y":null,"LONGITUDE":-79.3314033847,"LATITUDE":43.6894680941,"OBJECTID":16493153,"Shape__Area":4188623.6328125,"Shape__Length":10540.9128019616},{"_id":3185,"AREA_ID":25886570,"AREA_ATTR_ID":25926766,"PARENT_AREA_ID":49885,"AREA_SHORT_CODE":47,"AREA_LONG_CODE":47,"AREA_NAME":"Don Valley Village (47)","AREA_DESC":"Don Valley Village (47)","X":null,"Y":null,"LONGITUDE":-79.3536441306,"LATITUDE":43.783293686899995,"OBJECTID":16493169,"Shape__Area":8087000.5859375,"Shape__Length":11538.4465332694},{"_id":3186,"AREA_ID":25886489,"AREA_ATTR_ID":25926767,"PARENT_AREA_ID":49885,"AREA_SHORT_CODE":126,"AREA_LONG_CODE":126,"AREA_NAME":"Dorset Park (126)","AREA_DESC":"Dorset Park (126)","X":null,"Y":null,"LONGITUDE":-79.2789079388,"LATITUDE":43.759274372700006,"OBJECTID":16493185,"Shape__Area":11532563.9726563,"Shape__Length":14645.384508837},{"_id":3187,"AREA_ID":25886903,"AREA_ATTR_ID":25926768,"PARENT_AREA_ID":49885,"AREA_SHORT_CODE":93,"AREA_LONG_CODE":93,"AREA_NAME":"Dovercourt-Wallace Emerson-Junction (93)","AREA_DESC":"Dovercourt-Wallace Emerson-Junction (93)","X":null,"Y":null,"LONGITUDE":-79.4385406986,"LATITUDE":43.6656769317,"OBJECTID":16493201,"Shape__Area":7125377.66015625,"Shape__Length":12750.5443288079},{"_id":3188,"AREA_ID":25886652,"AREA_ATTR_ID":25926769,"PARENT_AREA_ID":49885,"AREA_SHORT_CODE":26,"AREA_LONG_CODE":26,"AREA_NAME":"Downsview-Roding-CFB (26)","AREA_DESC":"Downsview-Roding-CFB (26)","X":null,"Y":null,"LONGITUDE":-79.4904973518,"LATITUDE":43.7332923453,"OBJECTID":16493217,"Shape__Area":28736797.703125,"Shape__Length":29479.104709184303},{"_id":3189,"AREA_ID":25886949,"AREA_ATTR_ID":25926770,"PARENT_AREA_ID":49885,"AREA_SHORT_CODE":83,"AREA_LONG_CODE":83,"AREA_NAME":"Dufferin Grove (83)","AREA_DESC":"Dufferin Grove (83)","X":null,"Y":null,"LONGITUDE":-79.4373410365,"LATITUDE":43.6554283326,"OBJECTID":16493233,"Shape__Area":2653484.02734375,"Shape__Length":7114.42058917658},{"_id":3190,"AREA_ID":25886838,"AREA_ATTR_ID":25926771,"PARENT_AREA_ID":49885,"AREA_SHORT_CODE":62,"AREA_LONG_CODE":62,"AREA_NAME":"East End-Danforth (62)","AREA_DESC":"East End-Danforth (62)","X":null,"Y":null,"LONGITUDE":-79.2993586723,"LATITUDE":43.684173877700005,"OBJECTID":16493249,"Shape__Area":5049523.19921875,"Shape__Length":10196.658642354101},{"_id":3191,"AREA_ID":25886752,"AREA_ATTR_ID":25926772,"PARENT_AREA_ID":49885,"AREA_SHORT_CODE":9,"AREA_LONG_CODE":9,"AREA_NAME":"Edenbridge-Humber Valley (9)","AREA_DESC":"Edenbridge-Humber Valley (9)","X":null,"Y":null,"LONGITUDE":-79.5224577643,"LATITUDE":43.6708859094,"OBJECTID":16493265,"Shape__Area":10542836.2773438,"Shape__Length":15466.7816595194},{"_id":3192,"AREA_ID":25886513,"AREA_ATTR_ID":25926773,"PARENT_AREA_ID":49885,"AREA_SHORT_CODE":138,"AREA_LONG_CODE":138,"AREA_NAME":"Eglinton East (138)","AREA_DESC":"Eglinton East (138)","X":null,"Y":null,"LONGITUDE":-79.245598036,"LATITUDE":43.7409222979,"OBJECTID":16493281,"Shape__Area":6179031.06640625,"Shape__Length":13864.2642265224},{"_id":3193,"AREA_ID":25886733,"AREA_ATTR_ID":25926774,"PARENT_AREA_ID":49885,"AREA_SHORT_CODE":5,"AREA_LONG_CODE":5,"AREA_NAME":"Elms-Old Rexdale (5)","AREA_DESC":"Elms-Old Rexdale (5)","X":null,"Y":null,"LONGITUDE":-79.54898271649999,"LATITUDE":43.721518868400004,"OBJECTID":16493297,"Shape__Area":5616462.6015625,"Shape__Length":12955.6349889052},{"_id":3194,"AREA_ID":25886680,"AREA_ATTR_ID":25926775,"PARENT_AREA_ID":49885,"AREA_SHORT_CODE":32,"AREA_LONG_CODE":32,"AREA_NAME":"Englemount-Lawrence (32)","AREA_DESC":"Englemount-Lawrence (32)","X":null,"Y":null,"LONGITUDE":-79.43740855,"LATITUDE":43.7203446653,"OBJECTID":16493313,"Shape__Area":6663718.7265625,"Shape__Length":11514.2525042097},{"_id":3195,"AREA_ID":25886758,"AREA_ATTR_ID":25926776,"PARENT_AREA_ID":49885,"AREA_SHORT_CODE":11,"AREA_LONG_CODE":11,"AREA_NAME":"Eringate-Centennial-West Deane (11)","AREA_DESC":"Eringate-Centennial-West Deane (11)","X":null,"Y":null,"LONGITUDE":-79.5804452375,"LATITUDE":43.6580167554,"OBJECTID":16493329,"Shape__Area":16530914.160156302,"Shape__Length":21240.5301982792},{"_id":3196,"AREA_ID":25886774,"AREA_ATTR_ID":25926777,"PARENT_AREA_ID":49885,"AREA_SHORT_CODE":13,"AREA_LONG_CODE":13,"AREA_NAME":"Etobicoke West Mall (13)","AREA_DESC":"Etobicoke West Mall (13)","X":null,"Y":null,"LONGITUDE":-79.5689387722,"LATITUDE":43.6450626244,"OBJECTID":16493345,"Shape__Area":3433832.49609375,"Shape__Length":8955.190853079921},{"_id":3197,"AREA_ID":25886693,"AREA_ATTR_ID":25926778,"PARENT_AREA_ID":49885,"AREA_SHORT_CODE":44,"AREA_LONG_CODE":44,"AREA_NAME":"Flemingdon Park (44)","AREA_DESC":"Flemingdon Park (44)","X":null,"Y":null,"LONGITUDE":-79.3326459673,"LATITUDE":43.715929753999994,"OBJECTID":16493361,"Shape__Area":4737573.83984375,"Shape__Length":11740.108684196799},{"_id":3198,"AREA_ID":25886825,"AREA_ATTR_ID":25926779,"PARENT_AREA_ID":49885,"AREA_SHORT_CODE":102,"AREA_LONG_CODE":102,"AREA_NAME":"Forest Hill North (102)","AREA_DESC":"Forest Hill North (102)","X":null,"Y":null,"LONGITUDE":-79.42814316479999,"LATITUDE":43.7042175596,"OBJECTID":16493377,"Shape__Area":3004590.06640625,"Shape__Length":7873.295355458609},{"_id":3199,"AREA_ID":25886389,"AREA_ATTR_ID":25926780,"PARENT_AREA_ID":49885,"AREA_SHORT_CODE":101,"AREA_LONG_CODE":101,"AREA_NAME":"Forest Hill South (101)","AREA_DESC":"Forest Hill South (101)","X":null,"Y":null,"LONGITUDE":-79.4143178642,"LATITUDE":43.694525756400004,"OBJECTID":16493393,"Shape__Area":4747124.2734375,"Shape__Length":9946.85831856581},{"_id":3200,"AREA_ID":25886640,"AREA_ATTR_ID":25926781,"PARENT_AREA_ID":49885,"AREA_SHORT_CODE":25,"AREA_LONG_CODE":25,"AREA_NAME":"Glenfield-Jane Heights (25)","AREA_DESC":"Glenfield-Jane Heights (25)","X":null,"Y":null,"LONGITUDE":-79.5134653159,"LATITUDE":43.745635749799995,"OBJECTID":16493409,"Shape__Area":9875139.38671875,"Shape__Length":15837.8791196027},{"_id":3201,"AREA_ID":25886858,"AREA_ATTR_ID":25926782,"PARENT_AREA_ID":49885,"AREA_SHORT_CODE":65,"AREA_LONG_CODE":65,"AREA_NAME":"Greenwood-Coxwell (65)","AREA_DESC":"Greenwood-Coxwell (65)","X":null,"Y":null,"LONGITUDE":-79.3243180234,"LATITUDE":43.6726123109,"OBJECTID":16493425,"Shape__Area":3204179.1328125,"Shape__Length":9467.82400187113},{"_id":3202,"AREA_ID":25886507,"AREA_ATTR_ID":25926783,"PARENT_AREA_ID":49885,"AREA_SHORT_CODE":140,"AREA_LONG_CODE":140,"AREA_NAME":"Guildwood (140)","AREA_DESC":"Guildwood (140)","X":null,"Y":null,"LONGITUDE":-79.1950553496,"LATITUDE":43.7488293378,"OBJECTID":16493441,"Shape__Area":7294790.05078125,"Shape__Length":13609.0159198333},{"_id":3203,"AREA_ID":25886600,"AREA_ATTR_ID":25926784,"PARENT_AREA_ID":49885,"AREA_SHORT_CODE":53,"AREA_LONG_CODE":53,"AREA_NAME":"Henry Farm (53)","AREA_DESC":"Henry Farm (53)","X":null,"Y":null,"LONGITUDE":-79.3412406671,"LATITUDE":43.7711441425,"OBJECTID":16493457,"Shape__Area":4976458.01171875,"Shape__Length":11278.1069577071},{"_id":3204,"AREA_ID":25886941,"AREA_ATTR_ID":25926785,"PARENT_AREA_ID":49885,"AREA_SHORT_CODE":88,"AREA_LONG_CODE":88,"AREA_NAME":"High Park North (88)","AREA_DESC":"High Park North (88)","X":null,"Y":null,"LONGITUDE":-79.4663021661,"LATITUDE":43.6575649139,"OBJECTID":16493473,"Shape__Area":3598782.30078125,"Shape__Length":8733.411723843828},{"_id":3205,"AREA_ID":25886967,"AREA_ATTR_ID":25926786,"PARENT_AREA_ID":49885,"AREA_SHORT_CODE":87,"AREA_LONG_CODE":87,"AREA_NAME":"High Park-Swansea (87)","AREA_DESC":"High Park-Swansea (87)","X":null,"Y":null,"LONGITUDE":-79.46787222430001,"LATITUDE":43.6450645834,"OBJECTID":16493489,"Shape__Area":10239751.6875,"Shape__Length":14667.6663024375},{"_id":3206,"AREA_ID":25886455,"AREA_ATTR_ID":25926787,"PARENT_AREA_ID":49885,"AREA_SHORT_CODE":134,"AREA_LONG_CODE":134,"AREA_NAME":"Highland Creek (134)","AREA_DESC":"Highland Creek (134)","X":null,"Y":null,"LONGITUDE":-79.17747247289999,"LATITUDE":43.7907747688,"OBJECTID":16493505,"Shape__Area":10077023.8164063,"Shape__Length":13732.9294469614},{"_id":3207,"AREA_ID":25886554,"AREA_ATTR_ID":25926788,"PARENT_AREA_ID":49885,"AREA_SHORT_CODE":48,"AREA_LONG_CODE":48,"AREA_NAME":"Hillcrest Village (48)","AREA_DESC":"Hillcrest Village (48)","X":null,"Y":null,"LONGITUDE":-79.3548039999,"LATITUDE":43.8029878281,"OBJECTID":16493521,"Shape__Area":10365316.1132813,"Shape__Length":13263.782407373},{"_id":3208,"AREA_ID":25886740,"AREA_ATTR_ID":25926789,"PARENT_AREA_ID":49885,"AREA_SHORT_CODE":8,"AREA_LONG_CODE":8,"AREA_NAME":"Humber Heights-Westmount (8)","AREA_DESC":"Humber Heights-Westmount (8)","X":null,"Y":null,"LONGITUDE":-79.5224162029,"LATITUDE":43.6922328007,"OBJECTID":16493537,"Shape__Area":5364917.3125,"Shape__Length":12578.6847118903},{"_id":3209,"AREA_ID":25886613,"AREA_ATTR_ID":25926790,"PARENT_AREA_ID":49885,"AREA_SHORT_CODE":21,"AREA_LONG_CODE":21,"AREA_NAME":"Humber Summit (21)","AREA_DESC":"Humber Summit (21)","X":null,"Y":null,"LONGITUDE":-79.55617473630001,"LATITUDE":43.7589197465,"OBJECTID":16493553,"Shape__Area":15284184.328125,"Shape__Length":17453.2515541392},{"_id":3210,"AREA_ID":25886658,"AREA_ATTR_ID":25926791,"PARENT_AREA_ID":49885,"AREA_SHORT_CODE":22,"AREA_LONG_CODE":22,"AREA_NAME":"Humbermede (22)","AREA_DESC":"Humbermede (22)","X":null,"Y":null,"LONGITUDE":-79.5423671192,"LATITUDE":43.7434295175,"OBJECTID":16493569,"Shape__Area":8478389.984375,"Shape__Length":17227.5802372025},{"_id":3211,"AREA_ID":25886372,"AREA_ATTR_ID":25926792,"PARENT_AREA_ID":49885,"AREA_SHORT_CODE":106,"AREA_LONG_CODE":106,"AREA_NAME":"Humewood-Cedarvale (106)","AREA_DESC":"Humewood-Cedarvale (106)","X":null,"Y":null,"LONGITUDE":-79.4276833521,"LATITUDE":43.6913698124,"OBJECTID":16493585,"Shape__Area":3581522.69921875,"Shape__Length":8355.083705662571},{"_id":3212,"AREA_ID":25886525,"AREA_ATTR_ID":25926793,"PARENT_AREA_ID":49885,"AREA_SHORT_CODE":125,"AREA_LONG_CODE":125,"AREA_NAME":"Ionview (125)","AREA_DESC":"Ionview (125)","X":null,"Y":null,"LONGITUDE":-79.27247049420001,"LATITUDE":43.735364407700004,"OBJECTID":16493601,"Shape__Area":3743075.625,"Shape__Length":8806.02749254707},{"_id":3213,"AREA_ID":25886767,"AREA_ATTR_ID":25926794,"PARENT_AREA_ID":49885,"AREA_SHORT_CODE":14,"AREA_LONG_CODE":14,"AREA_NAME":"Islington-City Centre West (14)","AREA_DESC":"Islington-City Centre West (14)","X":null,"Y":null,"LONGITUDE":-79.5433165354,"LATITUDE":43.6334633497,"OBJECTID":16493617,"Shape__Area":31026079.6601563,"Shape__Length":28076.3073537819},{"_id":3214,"AREA_ID":25886882,"AREA_ATTR_ID":25926795,"PARENT_AREA_ID":49885,"AREA_SHORT_CODE":90,"AREA_LONG_CODE":90,"AREA_NAME":"Junction Area (90)","AREA_DESC":"Junction Area (90)","X":null,"Y":null,"LONGITUDE":-79.47143987359999,"LATITUDE":43.6678897668,"OBJECTID":16493633,"Shape__Area":5033627.6953125,"Shape__Length":10771.397081746},{"_id":3215,"AREA_ID":25886386,"AREA_ATTR_ID":25926796,"PARENT_AREA_ID":49885,"AREA_SHORT_CODE":110,"AREA_LONG_CODE":110,"AREA_NAME":"Keelesdale-Eglinton West (110)","AREA_DESC":"Keelesdale-Eglinton West (110)","X":null,"Y":null,"LONGITUDE":-79.4714371062,"LATITUDE":43.6857274725,"OBJECTID":16493649,"Shape__Area":3350494.37109375,"Shape__Length":7840.01415683028},{"_id":3216,"AREA_ID":25886531,"AREA_ATTR_ID":25926797,"PARENT_AREA_ID":49885,"AREA_SHORT_CODE":124,"AREA_LONG_CODE":124,"AREA_NAME":"Kennedy Park (124)","AREA_DESC":"Kennedy Park (124)","X":null,"Y":null,"LONGITUDE":-79.2603822071,"LATITUDE":43.725555723199996,"OBJECTID":16493665,"Shape__Area":6861056.15625,"Shape__Length":10530.2024329899},{"_id":3217,"AREA_ID":25886955,"AREA_ATTR_ID":25926798,"PARENT_AREA_ID":49885,"AREA_SHORT_CODE":78,"AREA_LONG_CODE":78,"AREA_NAME":"Kensington-Chinatown (78)","AREA_DESC":"Kensington-Chinatown (78)","X":null,"Y":null,"LONGITUDE":-79.3972398768,"LATITUDE":43.653554131599996,"OBJECTID":16493681,"Shape__Area":2933586.25,"Shape__Length":6945.05655682482},{"_id":3218,"AREA_ID":25886737,"AREA_ATTR_ID":25926799,"PARENT_AREA_ID":49885,"AREA_SHORT_CODE":6,"AREA_LONG_CODE":6,"AREA_NAME":"Kingsview Village-The Westway (6)","AREA_DESC":"Kingsview Village-The Westway (6)","X":null,"Y":null,"LONGITUDE":-79.5478633059,"LATITUDE":43.698992572200005,"OBJECTID":16493697,"Shape__Area":9694496.36328125,"Shape__Length":14458.764270629299},{"_id":3219,"AREA_ID":25886763,"AREA_ATTR_ID":25926800,"PARENT_AREA_ID":49885,"AREA_SHORT_CODE":15,"AREA_LONG_CODE":15,"AREA_NAME":"Kingsway South (15)","AREA_DESC":"Kingsway South (15)","X":null,"Y":null,"LONGITUDE":-79.5105768007,"LATITUDE":43.6535204276,"OBJECTID":16493713,"Shape__Area":5043477.00390625,"Shape__Length":11140.6727144023},{"_id":3220,"AREA_ID":25886439,"AREA_ATTR_ID":25926801,"PARENT_AREA_ID":49885,"AREA_SHORT_CODE":117,"AREA_LONG_CODE":117,"AREA_NAME":"L'Amoreaux (117)","AREA_DESC":"L'Amoreaux (117)","X":null,"Y":null,"LONGITUDE":-79.3140842409,"LATITUDE":43.7957160278,"OBJECTID":16493729,"Shape__Area":13741276.34375,"Shape__Length":17413.8864021121}]